instalacao,conta_contrato,numero_serie,numero_poste,nome_cliente,latitude,longitude
12345678,98765432,11223344,P-100/A,JOAO DA SILVA,-23.550520,-46.633308
87654321,23456789,44332211,P-202/B,MARIA OLIVEIRA,-22.906847,-43.172896
13572468,11223344,99887766,P-303/C,JOSE SANTOS,-19.916681,-43.934493
24681357,55667788,55443322,P-404/D,ANA SOUZA,-30.034647,-51.217658
99887766,66778899,12121212,P-505/E,PEDRO ALCANTARA,-15.794229,-47.882166
